[
  {
    "id": "SGW-B",
    "campus": "SGW",
    "code": "B",
    "name": "B Annex",
    "address": "2160 Bishop St.",
    "latitude": 45.497856,
    "longitude": -73.579588,
    "aliases": ["B", "B Annex", "B Building"]
  },
  {
    "id": "SGW-CI",
    "campus": "SGW",
    "code": "CI",
    "name": "CI Annex",
    "address": "2149 Mackay St.",
    "latitude": 45.497467,
    "longitude": -73.579925,
    "aliases": ["CI", "CI Annex", "CI Building"]
  },
  {
    "id": "SGW-CL",
    "campus": "SGW",
    "code": "CL",
    "name": "CL Annex",
    "address": "1665 Ste-Catherine St. W.",
    "latitude": 45.496944,
    "longitude": -73.5781,
    "aliases": ["CL", "CL Annex", "CL Building"]
  },
  {
    "id": "SGW-D",
    "campus": "SGW",
    "code": "D",
    "name": "D Annex",
    "address": "2140 Bishop St.",
    "latitude": 45.497319,
    "longitude": -73.579414,
    "aliases": ["D", "D Annex", "D Building"]
  },
  {
    "id": "SGW-EN",
    "campus": "SGW",
    "code": "EN",
    "name": "EN Annex",
    "address": "2070 Mackay St.",
    "latitude": 45.49655,
    "longitude": -73.57936,
    "aliases": ["EN", "EN Annex", "EN Building"]
  },
  {
    "id": "SGW-ER",
    "campus": "SGW",
    "code": "ER",
    "name": "ER Building",
    "address": "2155 Guy St.",
    "latitude": 45.49595,
    "longitude": -73.5799,
    "aliases": ["ER", "ER Building"]
  },
  {
    "id": "SGW-EV",
    "campus": "SGW",
    "code": "EV",
    "name": "Engineering, Computer Science and Visual Arts Integrated Complex",
    "address": "1515 Ste-Catherine St. W.",
    "latitude": 45.49533,
    "longitude": -73.57815,
    "aliases": [
      "EV",
      "EV Building",
      "Engineering, Computer Science and Visual Arts Integrated Complex"
    ]
  },
  {
    "id": "SGW-FA",
    "campus": "SGW",
    "code": "FA",
    "name": "FA Annex",
    "address": "2060 Mackay St.",
    "latitude": 45.49627,
    "longitude": -73.57922,
    "aliases": ["FA", "FA Annex", "FA Building"]
  },
  {
    "id": "SGW-FB",
    "campus": "SGW",
    "code": "FB",
    "name": "Faubourg Building",
    "address": "1250 Guy St.",
    "latitude": 45.49485,
    "longitude": -73.57953,
    "aliases": ["FB", "FB Building", "Faubourg Building"]
  },
  {
    "id": "SGW-FG",
    "campus": "SGW",
    "code": "FG",
    "name": "Faubourg Ste-Catherine Building",
    "address": "1600 Ste-Catherine St. W.",
    "latitude": 45.49588,
    "longitude": -73.57761,
    "aliases": ["FG", "FG Building", "Faubourg Ste-Catherine Building"]
  },
  {
    "id": "SGW-GA",
    "campus": "SGW",
    "code": "GA",
    "name": "Grey Nuns Annex",
    "address": "1211 St-Mathieu St.",
    "latitude": 45.49456,
    "longitude": -73.57913,
    "aliases": ["GA", "GA Annex", "GA Building", "Grey Nuns Annex"]
  },
  {
    "id": "SGW-GM",
    "campus": "SGW",
    "code": "GM",
    "name": "Guy-De Maisonneuve Building",
    "address": "1550 De Maisonneuve Blvd. W.",
    "latitude": 45.49637,
    "longitude": -73.57897,
    "aliases": ["GM", "GM Building", "Guy-De Maisonneuve Building"]
  },
  {
    "id": "SGW-GN",
    "campus": "SGW",
    "code": "GN",
    "name": "Grey Nuns Building",
    "address": "1190 Guy St.",
    "latitude": 45.49427,
    "longitude": -73.57975,
    "aliases": ["GN", "GN Building", "Grey Nuns Building"]
  },
  {
    "id": "SGW-GS",
    "campus": "SGW",
    "code": "GS",
    "name": "GS Building",
    "address": "1538 Sherbrooke St. W.",
    "latitude": 45.49598,
    "longitude": -73.58237,
    "aliases": ["GS", "GS Building"]
  },
  {
    "id": "SGW-H",
    "campus": "SGW",
    "code": "H",
    "name": "Henry F. Hall Building",
    "address": "1455 De Maisonneuve Blvd W.",
    "latitude": 45.49729,
    "longitude": -73.57898,
    "aliases": ["H", "H Building", "Henry F. Hall Building"]
  },
  {
    "id": "SGW-K",
    "campus": "SGW",
    "code": "K",
    "name": "K Annex",
    "address": "2150 Bishop St.",
    "latitude": 45.49758,
    "longitude": -73.57926,
    "aliases": ["K", "K Annex", "K Building"]
  },
  {
    "id": "SGW-LB",
    "campus": "SGW",
    "code": "LB",
    "name": "J.W. McConnell Building",
    "address": "1400 De Maisonneuve Blvd W.",
    "latitude": 45.4978,
    "longitude": -73.57818,
    "aliases": ["LB", "LB Building", "J.W. McConnell Building"]
  },
  {
    "id": "SGW-LD",
    "campus": "SGW",
    "code": "LD",
    "name": "LD Building",
    "address": "1424 Bishop St.",
    "latitude": 45.4985,
    "longitude": -73.57912,
    "aliases": ["LD", "LD Building"]
  },
  {
    "id": "SGW-LS",
    "campus": "SGW",
    "code": "LS",
    "name": "Learning Square",
    "address": "1535 De Maisonneuve Blvd W.",
    "latitude": 45.49689,
    "longitude": -73.5805,
    "aliases": ["LS", "LS Building", "Learning Square"]
  },
  {
    "id": "SGW-M",
    "campus": "SGW",
    "code": "M",
    "name": "M Annex",
    "address": "2135 Mackay St.",
    "latitude": 45.49716,
    "longitude": -73.57977,
    "aliases": ["M", "M Annex", "M Building"]
  },
  {
    "id": "SGW-MB",
    "campus": "SGW",
    "code": "MB",
    "name": "John Molson Building",
    "address": "1450 Guy St.",
    "latitude": 45.49676,
    "longitude": -73.57879,
    "aliases": ["MB", "MB Building", "John Molson Building"]
  },
  {
    "id": "SGW-MI",
    "campus": "SGW",
    "code": "MI",
    "name": "MI Annex",
    "address": "2130 Bishop St.",
    "latitude": 45.49707,
    "longitude": -73.57903,
    "aliases": ["MI", "MI Annex", "MI Building"]
  },
  {
    "id": "SGW-MU",
    "campus": "SGW",
    "code": "MU",
    "name": "MU Annex",
    "address": "2170 Bishop St.",
    "latitude": 45.49809,
    "longitude": -73.58003,
    "aliases": ["MU", "MU Annex", "MU Building"]
  },
  {
    "id": "SGW-P",
    "campus": "SGW",
    "code": "P",
    "name": "P Annex",
    "address": "2020 Mackay St.",
    "latitude": 45.49607,
    "longitude": -73.57902,
    "aliases": ["P", "P Annex", "P Building"]
  },
  {
    "id": "SGW-PR",
    "campus": "SGW",
    "code": "PR",
    "name": "PR Annex",
    "address": "2100 Mackay St.",
    "latitude": 45.49678,
    "longitude": -73.57965,
    "aliases": ["PR", "PR Annex", "PR Building"]
  },
  {
    "id": "SGW-Q",
    "campus": "SGW",
    "code": "Q",
    "name": "Q Annex",
    "address": "2010 Mackay St.",
    "latitude": 45.496,
    "longitude": -73.57893,
    "aliases": ["Q", "Q Annex", "Q Building"]
  },
  {
    "id": "SGW-R",
    "campus": "SGW",
    "code": "R",
    "name": "R Annex",
    "address": "2050 Mackay St.",
    "latitude": 45.4963,
    "longitude": -73.57922,
    "aliases": ["R", "R Annex", "R Building"]
  },
  {
    "id": "SGW-RR",
    "campus": "SGW",
    "code": "RR",
    "name": "RR Annex",
    "address": "2040 Mackay St.",
    "latitude": 45.49624,
    "longitude": -73.57914,
    "aliases": ["RR", "RR Annex", "RR Building"]
  },
  {
    "id": "SGW-S",
    "campus": "SGW",
    "code": "S",
    "name": "S Annex",
    "address": "2145 Mackay St.",
    "latitude": 45.49729,
    "longitude": -73.57994,
    "aliases": ["S", "S Annex", "S Building"]
  },
  {
    "id": "SGW-SB",
    "campus": "SGW",
    "code": "SB",
    "name": "Samuel Bronfman Building",
    "address": "1590 Dr. Penfield",
    "latitude": 45.49897,
    "longitude": -73.58604,
    "aliases": ["SB", "SB Building", "Samuel Bronfman Building"]
  },
  {
    "id": "SGW-T",
    "campus": "SGW",
    "code": "T",
    "name": "T Annex",
    "address": "2030 Mackay St.",
    "latitude": 45.49616,
    "longitude": -73.57909,
    "aliases": ["T", "T Annex", "T Building"]
  },
  {
    "id": "SGW-TD",
    "campus": "SGW",
    "code": "TD",
    "name": "Toronto-Dominion Building",
    "address": "1410 Guy St.",
    "latitude": 45.4969,
    "longitude": -73.57979,
    "aliases": ["TD", "TD Building", "Toronto-Dominion Building"]
  },
  {
    "id": "SGW-V",
    "campus": "SGW",
    "code": "V",
    "name": "V Annex",
    "address": "2110 Mackay St.",
    "latitude": 45.49686,
    "longitude": -73.57975,
    "aliases": ["V", "V Annex", "V Building"]
  },
  {
    "id": "SGW-VA",
    "campus": "SGW",
    "code": "VA",
    "name": "Visual Arts Building",
    "address": "1395 René-Lévesque Blvd W.",
    "latitude": 45.49669,
    "longitude": -73.5809,
    "aliases": ["VA", "VA Building", "Visual Arts Building"]
  },
  {
    "id": "SGW-X",
    "campus": "SGW",
    "code": "X",
    "name": "X Annex",
    "address": "2080 Mackay St.",
    "latitude": 45.49646,
    "longitude": -73.57949,
    "aliases": ["X", "X Annex", "X Building"]
  },
  {
    "id": "SGW-Z",
    "campus": "SGW",
    "code": "Z",
    "name": "Z Annex",
    "address": "2090 Mackay St.",
    "latitude": 45.49656,
    "longitude": -73.57959,
    "aliases": ["Z", "Z Annex", "Z Building"]
  }
]